{
"type": "FeatureCollection",
"name": "UNESCO_global-geoparks-list_2020",
"crs": { "type": "name", "properties": { "name": "urn:ogc:def:crs:OGC:1.3:CRS84" } },
"features": [
{ "type": "Feature", "properties": { "fid": 1.0, "name": "Kütralkura UNESCO Global Geopark", "year": 2019.0, "map_id": 10.0, "unesco_des": 2019, "ggn_des": 2019, "SOVEREIGNT": "Chile", "cntry": "Chile", "yr": 2019.0 }, "geometry": { "type": "Point", "coordinates": [ -70.959817727372041, -38.691627854992603 ] } },
{ "type": "Feature", "properties": { "fid": 2.0, "name": "Araripe UNESCO Global Geopark", "year": 2015.0, "map_id": 4.0, "unesco_des": 2015, "ggn_des": 2006, "SOVEREIGNT": "Brazil", "cntry": "Brazil", "yr": 2006.0 }, "geometry": { "type": "Point", "coordinates": [ -39.273605951844452, -7.298142181754059 ] } },
{ "type": "Feature", "properties": { "fid": 3.0, "name": "Grutas del Palacio UNESCO Global Geopark", "year": 2015.0, "map_id": 154.0, "unesco_des": 2015, "ggn_des": 2013, "SOVEREIGNT": "Uruguay", "cntry": "Uruguay", "yr": 2013.0 }, "geometry": { "type": "Point", "coordinates": [ -56.85574314422167, -33.462703596132087 ] } },
{ "type": "Feature", "properties": { "fid": 4.0, "name": "Colca y Volcanes de Andagua", "year": 2019.0, "map_id": 115.0, "unesco_des": 2019, "ggn_des": 2019, "SOVEREIGNT": "Peru", "cntry": "Peru", "yr": 2019.0 }, "geometry": { "type": "Point", "coordinates": [ -71.424072918663001, -15.374522191041581 ] } },
{ "type": "Feature", "properties": { "fid": 5.0, "name": "Imbabura UNESCO Global Geopark", "year": 2019.0, "map_id": 57.0, "unesco_des": 2019, "ggn_des": 2019, "SOVEREIGNT": "Ecuador", "cntry": "Ecuador", "yr": 2019.0 }, "geometry": { "type": "Point", "coordinates": [ -77.547530006885779, -0.603315478015999 ] } },
{ "type": "Feature", "properties": { "fid": 6.0, "name": "Rio Coco UNESCO Global Geopark", "year": 2020.0, "map_id": 111.0, "unesco_des": 2020, "ggn_des": 2020, "SOVEREIGNT": "Nicaragua", "cntry": "Nicaragua", "yr": 2020.0 }, "geometry": { "type": "Point", "coordinates": [ -83.889276972396374, 14.598698466044768 ] } },
{ "type": "Feature", "properties": { "fid": 7.0, "name": "Mixteca Alta,  Oaxaca UNESCO Global Geopark", "year": 2017.0, "map_id": 108.0, "unesco_des": 2017, "ggn_des": 2017, "SOVEREIGNT": "Mexico", "cntry": "Mexico", "yr": 2017.0 }, "geometry": { "type": "Point", "coordinates": [ -97.215308193450511, 17.47570896843207 ] } },
{ "type": "Feature", "properties": { "fid": 8.0, "name": "Comarca Minera, Hidalgo UNESCO Global Geopark", "year": 2017.0, "map_id": 107.0, "unesco_des": 2017, "ggn_des": 2017, "SOVEREIGNT": "Mexico", "cntry": "Mexico", "yr": 2017.0 }, "geometry": { "type": "Point", "coordinates": [ -98.34779440350556, 20.090233730609331 ] } },
{ "type": "Feature", "properties": { "fid": 9.0, "name": "Tumbler Ridge UNESCO Global Geopark", "year": 2015.0, "map_id": 6.0, "unesco_des": 2015, "ggn_des": 2014, "SOVEREIGNT": "Canada", "cntry": "Canada", "yr": 2014.0 }, "geometry": { "type": "Point", "coordinates": [ -120.617268353222826, 54.92211939742684 ] } },
{ "type": "Feature", "properties": { "fid": 10.0, "name": "Stonehammer UNESCO Global Geopark", "year": 2015.0, "map_id": 5.0, "unesco_des": 2015, "ggn_des": 2010, "SOVEREIGNT": "Canada", "cntry": "Canada", "yr": 2010.0 }, "geometry": { "type": "Point", "coordinates": [ -66.05728607029215, 45.353746767520875 ] } },
{ "type": "Feature", "properties": { "fid": 11.0, "name": "Perce UNESCO Global Geopark", "year": 2018.0, "map_id": 7.0, "unesco_des": 2018, "ggn_des": 2018, "SOVEREIGNT": "Canada", "cntry": "Canada", "yr": 2018.0 }, "geometry": { "type": "Point", "coordinates": [ -63.941764936633987, 48.514003168059119 ] } },
{ "type": "Feature", "properties": { "fid": 12.0, "name": "Cliffs of Fundy", "year": 2020.0, "map_id": 8.0, "unesco_des": 2020, "ggn_des": 2020, "SOVEREIGNT": "Canada", "cntry": "Canada", "yr": 2020.0 }, "geometry": { "type": "Point", "coordinates": [ -64.197521567677754, 45.212623794256153 ] } },
{ "type": "Feature", "properties": { "fid": 13.0, "name": "Discovery UNESCO Global Geopark", "year": 2020.0, "map_id": 9.0, "unesco_des": 2020, "ggn_des": 2020, "SOVEREIGNT": "Canada", "cntry": "Canada", "yr": 2020.0 }, "geometry": { "type": "Point", "coordinates": [ -53.343523513459729, 48.666764905087113 ] } },
{ "type": "Feature", "properties": { "fid": 14.0, "name": "Acores UNESCO Global Geopark", "year": 2015.0, "map_id": 117.0, "unesco_des": 2015, "ggn_des": 2013, "SOVEREIGNT": "Portugal", "cntry": "Portugal", "yr": 2013.0 }, "geometry": { "type": "Point", "coordinates": [ -27.023256025223827, 38.549005261955351 ] } },
{ "type": "Feature", "properties": { "fid": 15.0, "name": "Arouca UNESCO Global Geopark", "year": 2015.0, "map_id": 116.0, "unesco_des": 2015, "ggn_des": 2009, "SOVEREIGNT": "Portugal", "cntry": "Portugal", "yr": 2009.0 }, "geometry": { "type": "Point", "coordinates": [ -8.127058298005693, 40.820649106482399 ] } },
{ "type": "Feature", "properties": { "fid": 16.0, "name": "Naturtejo da Meseta UNESCO Global Geopark", "year": 2015.0, "map_id": 118.0, "unesco_des": 2015, "ggn_des": 2015, "SOVEREIGNT": "Spain", "cntry": "Spain", "yr": 2015.0 }, "geometry": { "type": "Point", "coordinates": [ -7.348802434159255, 39.624038827409535 ] } },
{ "type": "Feature", "properties": { "fid": 17.0, "name": "Terras de Cavaleiros UNESCO Global Geopark", "year": 2015.0, "map_id": 119.0, "unesco_des": 2015, "ggn_des": 2014, "SOVEREIGNT": "Portugal", "cntry": "Portugal", "yr": 2014.0 }, "geometry": { "type": "Point", "coordinates": [ -6.732872521189569, 41.459886661811872 ] } },
{ "type": "Feature", "properties": { "fid": 18.0, "name": "Estrela UNESCO Global Geopark", "year": 2020.0, "map_id": 120.0, "unesco_des": 2020, "ggn_des": 2020, "SOVEREIGNT": "Spain", "cntry": "Spain", "yr": 2020.0 }, "geometry": { "type": "Point", "coordinates": [ -6.793454401975456, 40.421501798768439 ] } },
{ "type": "Feature", "properties": { "fid": 19.0, "name": "MÂ´Goun UNESCO Global Geopark", "year": 2015.0, "map_id": 109.0, "unesco_des": 2015, "ggn_des": 2014, "SOVEREIGNT": "Morocco", "cntry": "Morocco", "yr": 2014.0 }, "geometry": { "type": "Point", "coordinates": [ -6.074634386131934, 31.68683695279125 ] } },
{ "type": "Feature", "properties": { "fid": 20.0, "name": "Basque Coast UNESCO Global Geopark", "year": 2015.0, "map_id": 129.0, "unesco_des": 2015, "ggn_des": 2010, "SOVEREIGNT": "Spain", "cntry": "Spain", "yr": 2010.0 }, "geometry": { "type": "Point", "coordinates": [ -2.242900383671364, 43.161784396862295 ] } },
{ "type": "Feature", "properties": { "fid": 21.0, "name": "Cabo de Gata-Ni­jar UNESCO Global Geopark", "year": 2015.0, "map_id": 130.0, "unesco_des": 2015, "ggn_des": 2006, "SOVEREIGNT": "Spain", "cntry": "Spain", "yr": 2006.0 }, "geometry": { "type": "Point", "coordinates": [ -1.93195377101568, 36.78046266803841 ] } },
{ "type": "Feature", "properties": { "fid": 22.0, "name": "Sierras Subbeticas UNESCO Global Geopark", "year": 2015.0, "map_id": 131.0, "unesco_des": 2015, "ggn_des": 2006, "SOVEREIGNT": "Spain", "cntry": "Spain", "yr": 2006.0 }, "geometry": { "type": "Point", "coordinates": [ -4.09808189488168, 37.296748723683507 ] } },
{ "type": "Feature", "properties": { "fid": 23.0, "name": "Sobrarbe-Pirineos UNESCO Global Geopark", "year": 2015.0, "map_id": 132.0, "unesco_des": 2015, "ggn_des": 2006, "SOVEREIGNT": "Spain", "cntry": "Spain", "yr": 2006.0 }, "geometry": { "type": "Point", "coordinates": [ 0.28051316316043, 42.400197412975388 ] } },
{ "type": "Feature", "properties": { "fid": 24.0, "name": "Sierra Norte de Sevilla UNESCO Global Geopark", "year": 2015.0, "map_id": 133.0, "unesco_des": 2015, "ggn_des": 2011, "SOVEREIGNT": "Spain", "cntry": "Spain", "yr": 2011.0 }, "geometry": { "type": "Point", "coordinates": [ -5.695589137583458, 37.773576032700426 ] } },
{ "type": "Feature", "properties": { "fid": 25.0, "name": "Villuercas Ibores Jara UNESCO Global Geopark", "year": 2015.0, "map_id": 134.0, "unesco_des": 2015, "ggn_des": 2011, "SOVEREIGNT": "Spain", "cntry": "Spain", "yr": 2011.0 }, "geometry": { "type": "Point", "coordinates": [ -5.790608462700586, 39.484585279940042 ] } },
{ "type": "Feature", "properties": { "fid": 26.0, "name": "Central Catalonia UNESCO Global Geopark", "year": 2015.0, "map_id": 135.0, "unesco_des": 2015, "ggn_des": 2012, "SOVEREIGNT": "Spain", "cntry": "Spain", "yr": 2012.0 }, "geometry": { "type": "Point", "coordinates": [ 2.045859953475515, 41.599822445130684 ] } },
{ "type": "Feature", "properties": { "fid": 27.0, "name": "Molina & Alto Tajo UNESCO Global Geopark", "year": 2015.0, "map_id": 136.0, "unesco_des": 2015, "ggn_des": 2014, "SOVEREIGNT": "Spain", "cntry": "Spain", "yr": 2014.0 }, "geometry": { "type": "Point", "coordinates": [ -1.77301058466868, 40.680915473745465 ] } },
{ "type": "Feature", "properties": { "fid": 28.0, "name": "El Hierro UNESCO Global Geopark", "year": 2015.0, "map_id": 137.0, "unesco_des": 2015, "ggn_des": 2014, "SOVEREIGNT": "Spain", "cntry": "Spain", "yr": 2014.0 }, "geometry": { "type": "Point", "coordinates": [ -17.730905626230673, 27.547829179378873 ] } },
{ "type": "Feature", "properties": { "fid": 29.0, "name": "Lanzarote and Chinijo Islands UNESCO Global Geopark", "year": 2015.0, "map_id": 138.0, "unesco_des": 2015, "ggn_des": 2015, "SOVEREIGNT": "Spain", "cntry": "Spain", "yr": 2015.0 }, "geometry": { "type": "Point", "coordinates": [ -13.375817340007893, 28.89470286956093 ] } },
{ "type": "Feature", "properties": { "fid": 30.0, "name": "Las Loras UNESCO Global Geopark", "year": 2017.0, "map_id": 139.0, "unesco_des": 2017, "ggn_des": 2017, "SOVEREIGNT": "Spain", "cntry": "Spain", "yr": 2017.0 }, "geometry": { "type": "Point", "coordinates": [ -3.911708932772625, 42.520366112152026 ] } },
{ "type": "Feature", "properties": { "fid": 31.0, "name": "Conca de Tremp-Montsec UNESCO Global Geopark", "year": 2018.0, "map_id": 140.0, "unesco_des": 2018, "ggn_des": 2018, "SOVEREIGNT": "Spain", "cntry": "Spain", "yr": 2018.0 }, "geometry": { "type": "Point", "coordinates": [ 0.572961146028613, 41.359955459637916 ] } },
{ "type": "Feature", "properties": { "fid": 32.0, "name": "Courel Mountains UNESCO Global Geopark", "year": 2019.0, "map_id": 141.0, "unesco_des": 2019, "ggn_des": 2019, "SOVEREIGNT": "Spain", "cntry": "Spain", "yr": 2019.0 }, "geometry": { "type": "Point", "coordinates": [ -6.821735631525761, 42.520366112152026 ] } },
{ "type": "Feature", "properties": { "fid": 33.0, "name": "Granada UNESCO Global Geopark", "year": 2020.0, "map_id": 142.0, "unesco_des": 2020, "ggn_des": 2020, "SOVEREIGNT": "Spain", "cntry": "Spain", "yr": 2020.0 }, "geometry": { "type": "Point", "coordinates": [ -2.616903114147311, 37.972332223752559 ] } },
{ "type": "Feature", "properties": { "fid": 34.0, "name": "Maestrazgo UNESCO Global Geopark", "year": 2020.0, "map_id": 143.0, "unesco_des": 2020, "ggn_des": 2020, "SOVEREIGNT": "Spain", "cntry": "Spain", "yr": 2020.0 }, "geometry": { "type": "Point", "coordinates": [ -0.161240461940495, 40.281865969040815 ] } },
{ "type": "Feature", "properties": { "fid": 35.0, "name": "Katla UNESCO Global Geopark", "year": 2015.0, "map_id": 78.0, "unesco_des": 2015, "ggn_des": 2011, "SOVEREIGNT": "Iceland", "cntry": "Iceland", "yr": 2011.0 }, "geometry": { "type": "Point", "coordinates": [ -18.219452340364548, 63.747984138705057 ] } },
{ "type": "Feature", "properties": { "fid": 36.0, "name": "Reykjanes UNESCO Global Geopark", "year": 2015.0, "map_id": 79.0, "unesco_des": 2015, "ggn_des": 2015, "SOVEREIGNT": "Iceland", "cntry": "Iceland", "yr": 2015.0 }, "geometry": { "type": "Point", "coordinates": [ -22.191808292718857, 63.792525921136765 ] } },
{ "type": "Feature", "properties": { "fid": 37.0, "name": "Copper Coast UNESCO Global Geopark", "year": 2015.0, "map_id": 86.0, "unesco_des": 2015, "ggn_des": 2004, "SOVEREIGNT": "Ireland", "cntry": "Ireland", "yr": 2004.0 }, "geometry": { "type": "Point", "coordinates": [ -7.166723100139851, 51.999366917906244 ] } },
{ "type": "Feature", "properties": { "fid": 38.0, "name": "Burren and Cliffs of Moher UNESCO Global Geopark", "year": 2015.0, "map_id": 87.0, "unesco_des": 2015, "ggn_des": 2012, "SOVEREIGNT": "Ireland", "cntry": "Ireland", "yr": 2012.0 }, "geometry": { "type": "Point", "coordinates": [ -8.904197998223381, 52.868644660908323 ] } },
{ "type": "Feature", "properties": { "fid": 39.0, "name": "North Pennines AONB UNESCO Global Geopark", "year": 2015.0, "map_id": 147.0, "unesco_des": 2015, "ggn_des": 2004, "SOVEREIGNT": "United Kingdom", "cntry": "United Kingdom", "yr": 2004.0 }, "geometry": { "type": "Point", "coordinates": [ -2.016765368440923, 54.576601578437433 ] } },
{ "type": "Feature", "properties": { "fid": 40.0, "name": "North-West Highlands UNESCO Global Geopark", "year": 2015.0, "map_id": 148.0, "unesco_des": 2015, "ggn_des": 2004, "SOVEREIGNT": "United Kingdom", "cntry": "United Kingdom", "yr": 2004.0 }, "geometry": { "type": "Point", "coordinates": [ -4.784043701609294, 58.126955297181432 ] } },
{ "type": "Feature", "properties": { "fid": 41.0, "name": "Fforest Fawr", "year": 2015.0, "map_id": 149.0, "unesco_des": 2015, "ggn_des": 2005, "SOVEREIGNT": "United Kingdom", "cntry": "United Kingdom", "yr": 2005.0 }, "geometry": { "type": "Point", "coordinates": [ -3.383096284165061, 51.669134003437897 ] } },
{ "type": "Feature", "properties": { "fid": 42.0, "name": "English Riviera UNESCO Global Geopark", "year": 2015.0, "map_id": 150.0, "unesco_des": 2015, "ggn_des": 2007, "SOVEREIGNT": "United Kingdom", "cntry": "United Kingdom", "yr": 2007.0 }, "geometry": { "type": "Point", "coordinates": [ -3.297866927504016, 50.31197170463647 ] } },
{ "type": "Feature", "properties": { "fid": 43.0, "name": "Shetland UNESCO Global Geopark", "year": 2015.0, "map_id": 152.0, "unesco_des": 2015, "ggn_des": 2009, "SOVEREIGNT": "United Kingdom", "cntry": "United Kingdom", "yr": 2009.0 }, "geometry": { "type": "Point", "coordinates": [ -1.053082975262575, 60.214760896455815 ] } },
{ "type": "Feature", "properties": { "fid": 44.0, "name": "Black Country UNESCO Global Geopark", "year": 2020.0, "map_id": 153.0, "unesco_des": 2020, "ggn_des": 2020, "SOVEREIGNT": "United Kingdom", "cntry": "United Kingdom", "yr": 2020.0 }, "geometry": { "type": "Point", "coordinates": [ -2.387150529598913, 52.890682025528356 ] } },
{ "type": "Feature", "properties": { "fid": 45.0, "name": "Marble Arch Caves UNESCO Global Geopark", "year": 2015.0, "map_id": 161.0, "unesco_des": 2015, "ggn_des": 2004, "SOVEREIGNT": "United Kingdom", "cntry": "United Kingdom", "yr": 2004.0 }, "geometry": { "type": "Point", "coordinates": [ -7.503775253193814, 54.139074878866985 ] } },
{ "type": "Feature", "properties": { "fid": 46.0, "name": "Gea Norvegica UNESCO Global Geopark", "year": 2015.0, "map_id": 112.0, "unesco_des": 2015, "ggn_des": 2006, "SOVEREIGNT": "Norway", "cntry": "Norway", "yr": 2006.0 }, "geometry": { "type": "Point", "coordinates": [ 9.857470156714356, 58.942193737490868 ] } },
{ "type": "Feature", "properties": { "fid": 47.0, "name": "Magma UNESCO Global Geopark", "year": 2015.0, "map_id": 113.0, "unesco_des": 2015, "ggn_des": 2006, "SOVEREIGNT": "Norway", "cntry": "Norway", "yr": 2006.0 }, "geometry": { "type": "Point", "coordinates": [ 6.54723120160229, 58.449051382624674 ] } },
{ "type": "Feature", "properties": { "fid": 48.0, "name": "Trollfjell UNESCO Global Geopark", "year": 2019.0, "map_id": 114.0, "unesco_des": 2019, "ggn_des": 2019, "SOVEREIGNT": "Norway", "cntry": "Norway", "yr": 2019.0 }, "geometry": { "type": "Point", "coordinates": [ 13.233928445458512, 66.225586098984579 ] } },
{ "type": "Feature", "properties": { "fid": 49.0, "name": "Odsherred UNESCO Global Geopark", "year": 2015.0, "map_id": 56.0, "unesco_des": 2015, "ggn_des": 2014, "SOVEREIGNT": "Denmark", "cntry": "Denmark", "yr": 2014.0 }, "geometry": { "type": "Point", "coordinates": [ 11.683824259557055, 55.69007608383555 ] } },
{ "type": "Feature", "properties": { "fid": 50.0, "name": "Famenne-Ardenne UNESCO Global Geopark", "year": 2018.0, "map_id": 3.0, "unesco_des": 2018, "ggn_des": 2018, "SOVEREIGNT": "Belgium", "cntry": "Belgium", "yr": 2018.0 }, "geometry": { "type": "Point", "coordinates": [ 4.604515773110142, 50.518381331120182 ] } },
{ "type": "Feature", "properties": { "fid": 51.0, "name": "Vulkaneifel UNESCO Global Geopark", "year": 2015.0, "map_id": 67.0, "unesco_des": 2015, "ggn_des": 2004, "SOVEREIGNT": "Germany", "cntry": "Germany", "yr": 2004.0 }, "geometry": { "type": "Point", "coordinates": [ 6.967756837444781, 50.067327499778251 ] } },
{ "type": "Feature", "properties": { "fid": 52.0, "name": "TERRA.vita UNESCO Global Geopark", "year": 2015.0, "map_id": 68.0, "unesco_des": 2015, "ggn_des": 2004, "SOVEREIGNT": "Germany", "cntry": "Germany", "yr": 2004.0 }, "geometry": { "type": "Point", "coordinates": [ 8.154974853413295, 52.207308529137286 ] } },
{ "type": "Feature", "properties": { "fid": 53.0, "name": "Bergstrasse-Odenwald UNESCO Global Geopark", "year": 2015.0, "map_id": 69.0, "unesco_des": 2015, "ggn_des": 2004, "SOVEREIGNT": "Germany", "cntry": "Germany", "yr": 2004.0 }, "geometry": { "type": "Point", "coordinates": [ 9.078155046218251, 49.514883612826303 ] } },
{ "type": "Feature", "properties": { "fid": 54.0, "name": "Swabian Alb UNESCO Global Geopark", "year": 2015.0, "map_id": 70.0, "unesco_des": 2015, "ggn_des": 2004, "SOVEREIGNT": "Germany", "cntry": "Germany", "yr": 2004.0 }, "geometry": { "type": "Point", "coordinates": [ 9.588775821108367, 48.250684357061701 ] } },
{ "type": "Feature", "properties": { "fid": 55.0, "name": "Harz,  Braunschweiger Land UNESCO Global Geopark", "year": 2015.0, "map_id": 71.0, "unesco_des": 2015, "ggn_des": 2004, "SOVEREIGNT": "Germany", "cntry": "Germany", "yr": 2004.0 }, "geometry": { "type": "Point", "coordinates": [ 10.951233026436057, 51.732304398412886 ] } },
{ "type": "Feature", "properties": { "fid": 56.0, "name": "Haute-Provence UNESCO Global Geopark", "year": 2015.0, "map_id": 60.0, "unesco_des": 2015, "ggn_des": 2004, "SOVEREIGNT": "France", "cntry": "France", "yr": 2004.0 }, "geometry": { "type": "Point", "coordinates": [ 6.436660339988756, 44.146990403424773 ] } },
{ "type": "Feature", "properties": { "fid": 57.0, "name": "Luberon UNESCO Global Geopark", "year": 2015.0, "map_id": 61.0, "unesco_des": 2015, "ggn_des": 2004, "SOVEREIGNT": "France", "cntry": "France", "yr": 2004.0 }, "geometry": { "type": "Point", "coordinates": [ 5.573898489831518, 43.644696764801594 ] } },
{ "type": "Feature", "properties": { "fid": 58.0, "name": "Massif des Bauges UNESCO Global Geopark", "year": 2015.0, "map_id": 62.0, "unesco_des": 2015, "ggn_des": 2011, "SOVEREIGNT": "France", "cntry": "France", "yr": 2011.0 }, "geometry": { "type": "Point", "coordinates": [ 6.389048404340247, 45.516355213067023 ] } },
{ "type": "Feature", "properties": { "fid": 59.0, "name": "Chablais UNESCO Global Geopark", "year": 2015.0, "map_id": 63.0, "unesco_des": 2015, "ggn_des": 2012, "SOVEREIGNT": "France", "cntry": "France", "yr": 2012.0 }, "geometry": { "type": "Point", "coordinates": [ 6.770339320992348, 46.24330437173171 ] } },
{ "type": "Feature", "properties": { "fid": 60.0, "name": "Monts d´Ardeche UNESCO Global Geopark", "year": 2015.0, "map_id": 64.0, "unesco_des": 2015, "ggn_des": 2014, "SOVEREIGNT": "France", "cntry": "France", "yr": 2014.0 }, "geometry": { "type": "Point", "coordinates": [ 4.381957674051955, 44.589504835268897 ] } },
{ "type": "Feature", "properties": { "fid": 61.0, "name": "Causses du Quercy UNESCO Global Geopark", "year": 2017.0, "map_id": 65.0, "unesco_des": 2017, "ggn_des": 2017, "SOVEREIGNT": "France", "cntry": "France", "yr": 2017.0 }, "geometry": { "type": "Point", "coordinates": [ 1.859375613060098, 44.428535662397202 ] } },
{ "type": "Feature", "properties": { "fid": 62.0, "name": "Beaujolais UNESCO Global Geopark", "year": 2018.0, "map_id": 66.0, "unesco_des": 2018, "ggn_des": 2018, "SOVEREIGNT": "France", "cntry": "France", "yr": 2018.0 }, "geometry": { "type": "Point", "coordinates": [ 5.206743127023739, 46.223091203031331 ] } },
{ "type": "Feature", "properties": { "fid": 63.0, "name": "Madonie UNESCO Global Geopark", "year": 2015.0, "map_id": 88.0, "unesco_des": 2015, "ggn_des": 2004, "SOVEREIGNT": "Italy", "cntry": "Italy", "yr": 2004.0 }, "geometry": { "type": "Point", "coordinates": [ 14.12831172552627, 37.91394264258858 ] } },
{ "type": "Feature", "properties": { "fid": 64.0, "name": "Beigua", "year": 2015.0, "map_id": 89.0, "unesco_des": 2015, "ggn_des": 2005, "SOVEREIGNT": "Italy", "cntry": "Italy", "yr": 2005.0 }, "geometry": { "type": "Point", "coordinates": [ 8.710201746266922, 44.30785007897056 ] } },
{ "type": "Feature", "properties": { "fid": 65.0, "name": "Rocca di Cerere UNESCO Global Geopark", "year": 2015.0, "map_id": 90.0, "unesco_des": 2015, "ggn_des": 2004, "SOVEREIGNT": "Italy", "cntry": "Italy", "yr": 2004.0 }, "geometry": { "type": "Point", "coordinates": [ 14.542741205656544, 37.258265894322719 ] } },
{ "type": "Feature", "properties": { "fid": 66.0, "name": "Adamello-Brenta UNESCO Global Geopark", "year": 2015.0, "map_id": 91.0, "unesco_des": 2015, "ggn_des": 2008, "SOVEREIGNT": "Italy", "cntry": "Italy", "yr": 2008.0 }, "geometry": { "type": "Point", "coordinates": [ 10.865910949910132, 46.04122546492286 ] } },
{ "type": "Feature", "properties": { "fid": 67.0, "name": "Cliento,  Vallo di Diano e Alburni UNESCO Global Geopark", "year": 2015.0, "map_id": 92.0, "unesco_des": 2015, "ggn_des": 2010, "SOVEREIGNT": "Italy", "cntry": "Italy", "yr": 2010.0 }, "geometry": { "type": "Point", "coordinates": [ 15.404864316451043, 40.183392895028803 ] } },
{ "type": "Feature", "properties": { "fid": 68.0, "name": "Tuscan Mining Park UNESCO Global Geopark", "year": 2015.0, "map_id": 93.0, "unesco_des": 2015, "ggn_des": 2010, "SOVEREIGNT": "Italy", "cntry": "Italy", "yr": 2010.0 }, "geometry": { "type": "Point", "coordinates": [ 11.136921408054018, 42.922401647759493 ] } },
{ "type": "Feature", "properties": { "fid": 69.0, "name": "Alpi Apuane UNESCO Global Geopark", "year": 2015.0, "map_id": 94.0, "unesco_des": 2015, "ggn_des": 2011, "SOVEREIGNT": "Italy", "cntry": "Italy", "yr": 2011.0 }, "geometry": { "type": "Point", "coordinates": [ 10.406088931570485, 43.925908608125305 ] } },
{ "type": "Feature", "properties": { "fid": 70.0, "name": "Sesia Val Grande UNESCO Global Geopark", "year": 2015.0, "map_id": 95.0, "unesco_des": 2015, "ggn_des": 2013, "SOVEREIGNT": "Italy", "cntry": "Italy", "yr": 2013.0 }, "geometry": { "type": "Point", "coordinates": [ 8.457368557436409, 45.718138722724589 ] } },
{ "type": "Feature", "properties": { "fid": 71.0, "name": "Pollino", "year": 2015.0, "map_id": 96.0, "unesco_des": 2015, "ggn_des": 2015, "SOVEREIGNT": "Italy", "cntry": "Italy", "yr": 2015.0 }, "geometry": { "type": "Point", "coordinates": [ 16.352450692196335, 39.864419587156235 ] } },
{ "type": "Feature", "properties": { "fid": 72.0, "name": "Styrian Eisenwurzen UNESCO Global Geopark", "year": 2015.0, "map_id": 1.0, "unesco_des": 2015, "ggn_des": 2014, "SOVEREIGNT": "Austria", "cntry": "Austria", "yr": 2014.0 }, "geometry": { "type": "Point", "coordinates": [ 14.973608534909228, 47.701922022404474 ] } },
{ "type": "Feature", "properties": { "fid": 73.0, "name": "Ore of the Alps UNESCO Global Geopark", "year": 2015.0, "map_id": 2.0, "unesco_des": 2015, "ggn_des": 2014, "SOVEREIGNT": "Austria", "cntry": "Austria", "yr": 2014.0 }, "geometry": { "type": "Point", "coordinates": [ 13.287254136806361, 47.316358794496487 ] } },
{ "type": "Feature", "properties": { "fid": 74.0, "name": "Papuk UNESCO Global Geopark", "year": 2015.0, "map_id": 52.0, "unesco_des": 2015, "ggn_des": 2007, "SOVEREIGNT": "Croatia", "cntry": "Croatia", "yr": 2007.0 }, "geometry": { "type": "Point", "coordinates": [ 17.820453201607592, 45.395337603986448 ] } },
{ "type": "Feature", "properties": { "fid": 75.0, "name": "Vis Archipelago UNESCO Global Geopark", "year": 2019.0, "map_id": 53.0, "unesco_des": 2019, "ggn_des": 2019, "SOVEREIGNT": "Croatia", "cntry": "Croatia", "yr": 2019.0 }, "geometry": { "type": "Point", "coordinates": [ 16.424573782516145, 42.90235430304773 ] } },
{ "type": "Feature", "properties": { "fid": 76.0, "name": "Bohemian Paradise UNESCO Global Geopark", "year": 2015.0, "map_id": 55.0, "unesco_des": 2015, "ggn_des": 2005, "SOVEREIGNT": "Czechia", "cntry": "Czechia", "yr": 2005.0 }, "geometry": { "type": "Point", "coordinates": [ 15.531309884418114, 50.374773364024257 ] } },
{ "type": "Feature", "properties": { "fid": 77.0, "name": "Djerdap UNESCO Global Geopark", "year": 2020.0, "map_id": 127.0, "unesco_des": 2020, "ggn_des": 2020, "SOVEREIGNT": "Romania", "cntry": "Romania", "yr": 2020.0 }, "geometry": { "type": "Point", "coordinates": [ 21.455078436958853, 44.992207936289269 ] } },
{ "type": "Feature", "properties": { "fid": 78.0, "name": "Idrija UNESCO Global Geopark", "year": 2015.0, "map_id": 128.0, "unesco_des": 2015, "ggn_des": 2013, "SOVEREIGNT": "Slovenia", "cntry": "Slovenia", "yr": 2013.0 }, "geometry": { "type": "Point", "coordinates": [ 14.143262052941637, 45.798883223515851 ] } },
{ "type": "Feature", "properties": { "fid": 79.0, "name": "Ngorongo Lengai UNESCO Global Geopark", "year": 2018.0, "map_id": 144.0, "unesco_des": 2018, "ggn_des": 2018, "SOVEREIGNT": "Tanzania", "cntry": "Tanzania", "yr": 2018.0 }, "geometry": { "type": "Point", "coordinates": [ 36.42384864540665, -3.195866940151011 ] } },
{ "type": "Feature", "properties": { "fid": 80.0, "name": "Rokua UNESCO Global Geopark", "year": 2015.0, "map_id": 58.0, "unesco_des": 2015, "ggn_des": 2010, "SOVEREIGNT": "Finland", "cntry": "Finland", "yr": 2010.0 }, "geometry": { "type": "Point", "coordinates": [ 26.820504038282774, 64.36516133320464 ] } },
{ "type": "Feature", "properties": { "fid": 81.0, "name": "Lauhanvuori-Hsemeenkangas UNESCO Global Geopark", "year": 2020.0, "map_id": 59.0, "unesco_des": 2020, "ggn_des": 2020, "SOVEREIGNT": "Finland", "cntry": "Finland", "yr": 2020.0 }, "geometry": { "type": "Point", "coordinates": [ 23.555034486084082, 62.24060320687002 ] } },
{ "type": "Feature", "properties": { "fid": 82.0, "name": "Lesvos Island UNESCO Global Geopark", "year": 2015.0, "map_id": 72.0, "unesco_des": 2015, "ggn_des": 2004, "SOVEREIGNT": "Greece", "cntry": "Greece", "yr": 2004.0 }, "geometry": { "type": "Point", "coordinates": [ 26.46557039939017, 39.056965253431784 ] } },
{ "type": "Feature", "properties": { "fid": 83.0, "name": "Psiloritis UNESCO Global Geopark", "year": 2015.0, "map_id": 73.0, "unesco_des": 2015, "ggn_des": 2004, "SOVEREIGNT": "Greece", "cntry": "Greece", "yr": 2004.0 }, "geometry": { "type": "Point", "coordinates": [ 24.938026529922098, 35.138905088253907 ] } },
{ "type": "Feature", "properties": { "fid": 84.0, "name": "Chelmos Vouraikos UNESCO Global Geopark", "year": 2015.0, "map_id": 74.0, "unesco_des": 2015, "ggn_des": 2009, "SOVEREIGNT": "Greece", "cntry": "Greece", "yr": 2009.0 }, "geometry": { "type": "Point", "coordinates": [ 22.186698404034402, 37.837906588458743 ] } },
{ "type": "Feature", "properties": { "fid": 85.0, "name": "Vikos - Aoos UNESCO Global Geopark", "year": 2015.0, "map_id": 75.0, "unesco_des": 2015, "ggn_des": 2010, "SOVEREIGNT": "Greece", "cntry": "Greece", "yr": 2010.0 }, "geometry": { "type": "Point", "coordinates": [ 20.889571892472578, 39.85812736824397 ] } },
{ "type": "Feature", "properties": { "fid": 86.0, "name": "Sitia UNESCO Global Geopark", "year": 2015.0, "map_id": 76.0, "unesco_des": 2015, "ggn_des": 2015, "SOVEREIGNT": "Greece", "cntry": "Greece", "yr": 2015.0 }, "geometry": { "type": "Point", "coordinates": [ 26.228983633972256, 35.062962283327074 ] } },
{ "type": "Feature", "properties": { "fid": 87.0, "name": "Bakony-Balaton UNESCO Global Geopark", "year": 2015.0, "map_id": 77.0, "unesco_des": 2015, "ggn_des": 2012, "SOVEREIGNT": "Hungary", "cntry": "Hungary", "yr": 2012.0 }, "geometry": { "type": "Point", "coordinates": [ 17.780756194803114, 46.972014869744122 ] } },
{ "type": "Feature", "properties": { "fid": 88.0, "name": "Troodos UNESCO Global Geopark", "year": 2015.0, "map_id": 54.0, "unesco_des": 2015, "ggn_des": 2015, "SOVEREIGNT": "Cyprus", "cntry": "Cyprus", "yr": 2015.0 }, "geometry": { "type": "Point", "coordinates": [ 33.033608041347776, 34.835135914666893 ] } },
{ "type": "Feature", "properties": { "fid": 89.0, "name": "Hateg UNESCO Global Geopark", "year": 2015.0, "map_id": 125.0, "unesco_des": 2015, "ggn_des": 2005, "SOVEREIGNT": "Romania", "cntry": "Romania", "yr": 2005.0 }, "geometry": { "type": "Point", "coordinates": [ 23.014402592754021, 45.404259603134918 ] } },
{ "type": "Feature", "properties": { "fid": 90.0, "name": "Muskauer Faltenbogen \/ Luk Muzakowa UNSECO Global Geopark", "year": 2015.0, "map_id": 159.0, "unesco_des": 2015, "ggn_des": 2011, "SOVEREIGNT": "Germany", "cntry": "Germany", "yr": 2011.0 }, "geometry": { "type": "Point", "coordinates": [ 14.822411915261332, 51.479677146946173 ] } },
{ "type": "Feature", "properties": { "fid": 91.0, "name": "Novohrad-Nograd UNESCO Global Geopark", "year": 2015.0, "map_id": 160.0, "unesco_des": 2015, "ggn_des": 2010, "SOVEREIGNT": "Hungary", "cntry": "Hungary", "yr": 2010.0 }, "geometry": { "type": "Point", "coordinates": [ 19.886042891731378, 47.992179142723217 ] } },
{ "type": "Feature", "properties": { "fid": 92.0, "name": "Qeshm Island UNESCO Global Geopark", "year": 2017.0, "map_id": 85.0, "unesco_des": 2017, "ggn_des": 2017, "SOVEREIGNT": "Iran", "cntry": "Iran", "yr": 2017.0 }, "geometry": { "type": "Point", "coordinates": [ 55.875235298511072, 26.698086339881534 ] } },
{ "type": "Feature", "properties": { "fid": 93.0, "name": "Yangan-Tau UNESCO Global Geopark", "year": 2020.0, "map_id": 126.0, "unesco_des": 2020, "ggn_des": 2020, "SOVEREIGNT": "Russia", "cntry": "Russia", "yr": 2020.0 }, "geometry": { "type": "Point", "coordinates": [ 59.693697594271235, 56.150307224331769 ] } },
{ "type": "Feature", "properties": { "fid": 94.0, "name": "Batur UNESCO Global Geopark", "year": 2015.0, "map_id": 80.0, "unesco_des": 2015, "ggn_des": 2012, "SOVEREIGNT": "Indonesia", "cntry": "Indonesia", "yr": 2012.0 }, "geometry": { "type": "Point", "coordinates": [ 115.299967323461246, -8.326753105141517 ] } },
{ "type": "Feature", "properties": { "fid": 95.0, "name": "Gunung Sewu UNESCO Global Geopark", "year": 2015.0, "map_id": 81.0, "unesco_des": 2015, "ggn_des": 2015, "SOVEREIGNT": "Indonesia", "cntry": "Indonesia", "yr": 2015.0 }, "geometry": { "type": "Point", "coordinates": [ 110.847352101168923, -8.137071619188212 ] } },
{ "type": "Feature", "properties": { "fid": 96.0, "name": "Ciletuh - Palabuhanratu UNESCO Global Geopark", "year": 2018.0, "map_id": 82.0, "unesco_des": 2018, "ggn_des": 2018, "SOVEREIGNT": "Indonesia", "cntry": "Indonesia", "yr": 2018.0 }, "geometry": { "type": "Point", "coordinates": [ 106.761182192490878, -7.302472912980381 ] } },
{ "type": "Feature", "properties": { "fid": 97.0, "name": "Rinjani-Lombok UNESCO Global Geopark", "year": 2018.0, "map_id": 83.0, "unesco_des": 2018, "ggn_des": 2018, "SOVEREIGNT": "Indonesia", "cntry": "Indonesia", "yr": 2018.0 }, "geometry": { "type": "Point", "coordinates": [ 116.569782155162727, -8.573339011077895 ] } },
{ "type": "Feature", "properties": { "fid": 98.0, "name": "Toba Caldera UNESCO Global Geopark", "year": 2020.0, "map_id": 84.0, "unesco_des": 2020, "ggn_des": 2020, "SOVEREIGNT": "Indonesia", "cntry": "Indonesia", "yr": 2020.0 }, "geometry": { "type": "Point", "coordinates": [ 98.938603234741166, 3.205886266054745 ] } },
{ "type": "Feature", "properties": { "fid": 99.0, "name": "Langkawi UNESCO Global Geopark", "year": 2015.0, "map_id": 106.0, "unesco_des": 2015, "ggn_des": 2007, "SOVEREIGNT": "Malaysia", "cntry": "Malaysia", "yr": 2007.0 }, "geometry": { "type": "Point", "coordinates": [ 99.896706230222151, 6.259759528938305 ] } },
{ "type": "Feature", "properties": { "fid": 100.0, "name": "Satun UNESCO Global Geopark", "year": 2018.0, "map_id": 145.0, "unesco_des": 2018, "ggn_des": 2018, "SOVEREIGNT": "Thailand", "cntry": "Thailand", "yr": 2018.0 }, "geometry": { "type": "Point", "coordinates": [ 99.605947311801046, 7.530626010917702 ] } },
{ "type": "Feature", "properties": { "fid": 101.0, "name": "Dong Van Karst UNESCO Global Geopark", "year": 2015.0, "map_id": 155.0, "unesco_des": 2015, "ggn_des": 2010, "SOVEREIGNT": "Vietnam", "cntry": "Vietnam", "yr": 2010.0 }, "geometry": { "type": "Point", "coordinates": [ 105.3029160689332, 23.046527423412517 ] } },
{ "type": "Feature", "properties": { "fid": 102.0, "name": "Non Nuoc Cao Bang UNESCO Global Geopark", "year": 2018.0, "map_id": 156.0, "unesco_des": 2018, "ggn_des": 2018, "SOVEREIGNT": "Vietnam", "cntry": "Vietnam", "yr": 2018.0 }, "geometry": { "type": "Point", "coordinates": [ 106.142329394601617, 22.515422170065886 ] } },
{ "type": "Feature", "properties": { "fid": 103.0, "name": "Dak Nong UNESCO Global Geopark", "year": 2020.0, "map_id": 157.0, "unesco_des": 2020, "ggn_des": 2020, "SOVEREIGNT": "Vietnam", "cntry": "Vietnam", "yr": 2020.0 }, "geometry": { "type": "Point", "coordinates": [ 107.446075462958461, 11.96917411640432 ] } },
{ "type": "Feature", "properties": { "fid": 104.0, "name": "Itoigawa UNESCO Global Geopark", "year": 2015.0, "map_id": 97.0, "unesco_des": 2015, "ggn_des": 2009, "SOVEREIGNT": "Japan", "cntry": "Japan", "yr": 2009.0 }, "geometry": { "type": "Point", "coordinates": [ 137.867933064719267, 36.810724116928661 ] } },
{ "type": "Feature", "properties": { "fid": 105.0, "name": "Unzen Volcanic Area UNESCO Global Geopark", "year": 2015.0, "map_id": 98.0, "unesco_des": 2015, "ggn_des": 2009, "SOVEREIGNT": "Japan", "cntry": "Japan", "yr": 2009.0 }, "geometry": { "type": "Point", "coordinates": [ 129.945250796839019, 32.425653696962577 ] } },
{ "type": "Feature", "properties": { "fid": 106.0, "name": "Toya - Usu UNESCO Global Geopark", "year": 2015.0, "map_id": 99.0, "unesco_des": 2015, "ggn_des": 2009, "SOVEREIGNT": "Japan", "cntry": "Japan", "yr": 2009.0 }, "geometry": { "type": "Point", "coordinates": [ 140.950077341070141, 42.536721011648496 ] } },
{ "type": "Feature", "properties": { "fid": 107.0, "name": "San´in Kaigan UNESCO Global Geopark", "year": 2015.0, "map_id": 100.0, "unesco_des": 2015, "ggn_des": 2010, "SOVEREIGNT": "Japan", "cntry": "Japan", "yr": 2010.0 }, "geometry": { "type": "Point", "coordinates": [ 134.65180540568619, 35.404733911238779 ] } },
{ "type": "Feature", "properties": { "fid": 108.0, "name": "Muroto UNESCO Global Geopark", "year": 2015.0, "map_id": 101.0, "unesco_des": 2015, "ggn_des": 2011, "SOVEREIGNT": "Japan", "cntry": "Japan", "yr": 2011.0 }, "geometry": { "type": "Point", "coordinates": [ 134.129207194359537, 33.222253870365705 ] } },
{ "type": "Feature", "properties": { "fid": 109.0, "name": "Oki Islands UNESCO Global Geopark", "year": 2015.0, "map_id": 102.0, "unesco_des": 2015, "ggn_des": 2013, "SOVEREIGNT": "Japan", "cntry": "Japan", "yr": 2013.0 }, "geometry": { "type": "Point", "coordinates": [ 133.375147978891363, 36.183524426007445 ] } },
{ "type": "Feature", "properties": { "fid": 110.0, "name": "Aso UNESCO Global Geopark", "year": 2015.0, "map_id": 103.0, "unesco_des": 2015, "ggn_des": 2014, "SOVEREIGNT": "Japan", "cntry": "Japan", "yr": 2014.0 }, "geometry": { "type": "Point", "coordinates": [ 131.074635146278951, 32.804966074916152 ] } },
{ "type": "Feature", "properties": { "fid": 111.0, "name": "Mt.  Apoi UNESCO Global Geopark", "year": 2015.0, "map_id": 104.0, "unesco_des": 2015, "ggn_des": 2015, "SOVEREIGNT": "Japan", "cntry": "Japan", "yr": 2015.0 }, "geometry": { "type": "Point", "coordinates": [ 143.157787255085623, 42.019062493003176 ] } },
{ "type": "Feature", "properties": { "fid": 112.0, "name": "Izu Peninsula UNESCO Global Geopark", "year": 2018.0, "map_id": 105.0, "unesco_des": 2018, "ggn_des": 2018, "SOVEREIGNT": "Japan", "cntry": "Japan", "yr": 2018.0 }, "geometry": { "type": "Point", "coordinates": [ 139.265312770220504, 34.892084571054546 ] } },
{ "type": "Feature", "properties": { "fid": 113.0, "name": "Jeju Islands UNESCO Global Geopark", "year": 2015.0, "map_id": 121.0, "unesco_des": 2015, "ggn_des": 2010, "SOVEREIGNT": "Republic of Korea", "cntry": "Republic of Kor", "yr": 2010.0 }, "geometry": { "type": "Point", "coordinates": [ 126.574177375192477, 33.222253870365705 ] } },
{ "type": "Feature", "properties": { "fid": 114.0, "name": "Cheongsong UNESCO Global Geopark", "year": 2017.0, "map_id": 122.0, "unesco_des": 2017, "ggn_des": 2017, "SOVEREIGNT": "Republic of Korea", "cntry": "Republic of Kor", "yr": 2017.0 }, "geometry": { "type": "Point", "coordinates": [ 129.126032726452053, 36.240528040435166 ] } },
{ "type": "Feature", "properties": { "fid": 115.0, "name": "Mudeungsang UNESCO Global Geopark", "year": 2018.0, "map_id": 123.0, "unesco_des": 2018, "ggn_des": 2018, "SOVEREIGNT": "Republic of Korea", "cntry": "Republic of Kor", "yr": 2018.0 }, "geometry": { "type": "Point", "coordinates": [ 127.14977544659169, 35.062962283326961 ] } },
{ "type": "Feature", "properties": { "fid": 116.0, "name": "Hantangang UNESCO Global Geopark", "year": 2020.0, "map_id": 124.0, "unesco_des": 2020, "ggn_des": 2020, "SOVEREIGNT": "Republic of Korea", "cntry": "Republic of Kor", "yr": 2020.0 }, "geometry": { "type": "Point", "coordinates": [ 128.169606718938752, 38.028257425445865 ] } },
{ "type": "Feature", "properties": { "fid": 117.0, "name": "Danxiashan UNESCO Global Geopark", "year": 2015.0, "map_id": 11.0, "unesco_des": 2015, "ggn_des": 2004, "SOVEREIGNT": "China", "cntry": "China", "yr": 2004.0 }, "geometry": { "type": "Point", "coordinates": [ 113.703257723295678, 24.782154506136528 ] } },
{ "type": "Feature", "properties": { "fid": 118.0, "name": "Huangshan UNESCO Global Geopark", "year": 2015.0, "map_id": 12.0, "unesco_des": 2015, "ggn_des": 2004, "SOVEREIGNT": "China", "cntry": "China", "yr": 2004.0 }, "geometry": { "type": "Point", "coordinates": [ 118.197991817756503, 29.979457978769943 ] } },
{ "type": "Feature", "properties": { "fid": 119.0, "name": "Lushan UNESCO Global Geopark", "year": 2015.0, "map_id": 13.0, "unesco_des": 2015, "ggn_des": 2004, "SOVEREIGNT": "China", "cntry": "China", "yr": 2004.0 }, "geometry": { "type": "Point", "coordinates": [ 115.783263038450542, 29.10706242247829 ] } },
{ "type": "Feature", "properties": { "fid": 120.0, "name": "Shilin UNESCO Global Geopark", "year": 2015.0, "map_id": 14.0, "unesco_des": 2015, "ggn_des": 2004, "SOVEREIGNT": "China", "cntry": "China", "yr": 2004.0 }, "geometry": { "type": "Point", "coordinates": [ 103.426090841022869, 24.592463585234135 ] } },
{ "type": "Feature", "properties": { "fid": 121.0, "name": "Songshan UNESCO Global Geopark", "year": 2015.0, "map_id": 15.0, "unesco_des": 2015, "ggn_des": 2004, "SOVEREIGNT": "China", "cntry": "China", "yr": 2004.0 }, "geometry": { "type": "Point", "coordinates": [ 113.106000401315001, 34.341655437826091 ] } },
{ "type": "Feature", "properties": { "fid": 122.0, "name": "Wudalianchi UNESCO Global Geopark", "year": 2015.0, "map_id": 16.0, "unesco_des": 2015, "ggn_des": 2004, "SOVEREIGNT": "China", "cntry": "China", "yr": 2004.0 }, "geometry": { "type": "Point", "coordinates": [ 126.212572052660875, 48.527952637950996 ] } },
{ "type": "Feature", "properties": { "fid": 123.0, "name": "Yuntaishan UNESCO Global Geopark", "year": 2015.0, "map_id": 17.0, "unesco_des": 2015, "ggn_des": 2004, "SOVEREIGNT": "China", "cntry": "China", "yr": 2004.0 }, "geometry": { "type": "Point", "coordinates": [ 113.374898673715521, 35.3287780792691 ] } },
{ "type": "Feature", "properties": { "fid": 124.0, "name": "Zhangjiajie UNESCO Global Geopark", "year": 2015.0, "map_id": 18.0, "unesco_des": 2015, "ggn_des": 2004, "SOVEREIGNT": "China", "cntry": "China", "yr": 2004.0 }, "geometry": { "type": "Point", "coordinates": [ 110.531683808321489, 29.144994810868138 ] } },
{ "type": "Feature", "properties": { "fid": 125.0, "name": "Hexigten UNESCO Global Geopark", "year": 2015.0, "map_id": 19.0, "unesco_des": 2015, "ggn_des": 2005, "SOVEREIGNT": "China", "cntry": "China", "yr": 2005.0 }, "geometry": { "type": "Point", "coordinates": [ 117.34924584142243, 43.131764905130453 ] } },
{ "type": "Feature", "properties": { "fid": 126.0, "name": "Taining UNESCO Global Geopark", "year": 2015.0, "map_id": 20.0, "unesco_des": 2015, "ggn_des": 2005, "SOVEREIGNT": "China", "cntry": "China", "yr": 2005.0 }, "geometry": { "type": "Point", "coordinates": [ 117.174586604161988, 26.736025622160312 ] } },
{ "type": "Feature", "properties": { "fid": 127.0, "name": "Xingwen UNESCO Global Geopark", "year": 2015.0, "map_id": 21.0, "unesco_des": 2015, "ggn_des": 2005, "SOVEREIGNT": "China", "cntry": "China", "yr": 2005.0 }, "geometry": { "type": "Point", "coordinates": [ 105.237244160761549, 28.101796274606343 ] } },
{ "type": "Feature", "properties": { "fid": 128.0, "name": "Yandangshan UNESCO Global Geopark", "year": 2015.0, "map_id": 22.0, "unesco_des": 2015, "ggn_des": 2005, "SOVEREIGNT": "China", "cntry": "China", "yr": 2005.0 }, "geometry": { "type": "Point", "coordinates": [ 121.169047061649422, 28.253540928493553 ] } },
{ "type": "Feature", "properties": { "fid": 129.0, "name": "Fangshan UNESCO Global Geopark", "year": 2015.0, "map_id": 23.0, "unesco_des": 2015, "ggn_des": 2006, "SOVEREIGNT": "China", "cntry": "China", "yr": 2006.0 }, "geometry": { "type": "Point", "coordinates": [ 115.846472913053532, 39.533727683551511 ] } },
{ "type": "Feature", "properties": { "fid": 130.0, "name": "Funiushan UNESCO Global Geopark", "year": 2015.0, "map_id": 24.0, "unesco_des": 2015, "ggn_des": 2006, "SOVEREIGNT": "China", "cntry": "China", "yr": 2006.0 }, "geometry": { "type": "Point", "coordinates": [ 111.92256704985185, 33.449888692018938 ] } },
{ "type": "Feature", "properties": { "fid": 131.0, "name": "Jingpohu UNESCO Global Geopark", "year": 2015.0, "map_id": 25.0, "unesco_des": 2015, "ggn_des": 2006, "SOVEREIGNT": "China", "cntry": "China", "yr": 2006.0 }, "geometry": { "type": "Point", "coordinates": [ 128.907710987068612, 43.823765220126504 ] } },
{ "type": "Feature", "properties": { "fid": 132.0, "name": "Leiqiong UNESCO Global Geopark", "year": 2015.0, "map_id": 26.0, "unesco_des": 2015, "ggn_des": 2006, "SOVEREIGNT": "China", "cntry": "China", "yr": 2006.0 }, "geometry": { "type": "Point", "coordinates": [ 110.296961244717892, 20.40051340987559 ] } },
{ "type": "Feature", "properties": { "fid": 133.0, "name": "Taishan UNESCO Global Geopark", "year": 2015.0, "map_id": 27.0, "unesco_des": 2015, "ggn_des": 2006, "SOVEREIGNT": "China", "cntry": "China", "yr": 2006.0 }, "geometry": { "type": "Point", "coordinates": [ 117.059813667874565, 35.917543276714092 ] } },
{ "type": "Feature", "properties": { "fid": 134.0, "name": "Wangwushan-Daimeishan UNESCO Global Geopark", "year": 2015.0, "map_id": 28.0, "unesco_des": 2015, "ggn_des": 2006, "SOVEREIGNT": "China", "cntry": "China", "yr": 2006.0 }, "geometry": { "type": "Point", "coordinates": [ 112.148624531667437, 34.892084571054525 ] } },
{ "type": "Feature", "properties": { "fid": 135.0, "name": "Longshushan UNESCO Global Geopark", "year": 2015.0, "map_id": 29.0, "unesco_des": 2015, "ggn_des": 2008, "SOVEREIGNT": "China", "cntry": "China", "yr": 2008.0 }, "geometry": { "type": "Point", "coordinates": [ 117.210012327215267, 27.987986526318771 ] } },
{ "type": "Feature", "properties": { "fid": 136.0, "name": "Zigong UNESCO Global Geopark", "year": 2015.0, "map_id": 30.0, "unesco_des": 2015, "ggn_des": 2008, "SOVEREIGNT": "China", "cntry": "China", "yr": 2008.0 }, "geometry": { "type": "Point", "coordinates": [ 104.516024816574912, 29.239824990683122 ] } },
{ "type": "Feature", "properties": { "fid": 137.0, "name": "Alxa Desert UNESCO Global Geopark", "year": 2015.0, "map_id": 31.0, "unesco_des": 2015, "ggn_des": 2009, "SOVEREIGNT": "China", "cntry": "China", "yr": 2009.0 }, "geometry": { "type": "Point", "coordinates": [ 102.506682621940413, 40.259073822601771 ] } },
{ "type": "Feature", "properties": { "fid": 138.0, "name": "Qinling Zhongnanshan UNESCO Global Geopark", "year": 2015.0, "map_id": 32.0, "unesco_des": 2015, "ggn_des": 2009, "SOVEREIGNT": "China", "cntry": "China", "yr": 2009.0 }, "geometry": { "type": "Point", "coordinates": [ 108.789070405495565, 33.753431224657831 ] } },
{ "type": "Feature", "properties": { "fid": 139.0, "name": "Ningde UNESCO Global Geopark", "year": 2015.0, "map_id": 33.0, "unesco_des": 2015, "ggn_des": 2010, "SOVEREIGNT": "China", "cntry": "China", "yr": 2010.0 }, "geometry": { "type": "Point", "coordinates": [ 119.835909198041847, 26.887782333576485 ] } },
{ "type": "Feature", "properties": { "fid": 140.0, "name": "Leye Fengshan UNESCO Global Geopark", "year": 2015.0, "map_id": 34.0, "unesco_des": 2015, "ggn_des": 2010, "SOVEREIGNT": "China", "cntry": "China", "yr": 2010.0 }, "geometry": { "type": "Point", "coordinates": [ 106.822169124458981, 24.497618646555051 ] } },
{ "type": "Feature", "properties": { "fid": 141.0, "name": "Hong Kong UNESCO Global Geopark", "year": 2015.0, "map_id": 35.0, "unesco_des": 2015, "ggn_des": 2011, "SOVEREIGNT": "China", "cntry": "China", "yr": 2011.0 }, "geometry": { "type": "Point", "coordinates": [ 114.492656319757103, 22.335226839381992 ] } },
{ "type": "Feature", "properties": { "fid": 142.0, "name": "Tianzhushan UNESCO Global Geopark", "year": 2015.0, "map_id": 36.0, "unesco_des": 2015, "ggn_des": 2011, "SOVEREIGNT": "China", "cntry": "China", "yr": 2011.0 }, "geometry": { "type": "Point", "coordinates": [ 116.518017748171133, 30.567297975462203 ] } },
{ "type": "Feature", "properties": { "fid": 143.0, "name": "Sanqingshan UNESCO Global Geopark", "year": 2019.0, "map_id": 37.0, "unesco_des": 2019, "ggn_des": 2012, "SOVEREIGNT": "China", "cntry": "China", "yr": 2012.0 }, "geometry": { "type": "Point", "coordinates": [ 118.141087859109064, 28.898431172131691 ] } },
{ "type": "Feature", "properties": { "fid": 144.0, "name": "Shennongjia UNESCO Global Geopark", "year": 2015.0, "map_id": 38.0, "unesco_des": 2015, "ggn_des": 2013, "SOVEREIGNT": "China", "cntry": "China", "yr": 2013.0 }, "geometry": { "type": "Point", "coordinates": [ 110.43517492722502, 31.325786406996272 ] } },
{ "type": "Feature", "properties": { "fid": 145.0, "name": "Yanqing UNESCO Global Geopark", "year": 2015.0, "map_id": 39.0, "unesco_des": 2015, "ggn_des": 2013, "SOVEREIGNT": "China", "cntry": "China", "yr": 2013.0 }, "geometry": { "type": "Point", "coordinates": [ 116.292891606228224, 40.450104693652769 ] } },
{ "type": "Feature", "properties": { "fid": 146.0, "name": "Mount Kunlun UNESCO Global Geopark", "year": 2015.0, "map_id": 40.0, "unesco_des": 2015, "ggn_des": 2014, "SOVEREIGNT": "China", "cntry": "China", "yr": 2014.0 }, "geometry": { "type": "Point", "coordinates": [ 94.151023666401471, 35.689604054828109 ] } },
{ "type": "Feature", "properties": { "fid": 147.0, "name": "Dali-Cangshan UNESCO Global Geopark", "year": 2015.0, "map_id": 41.0, "unesco_des": 2015, "ggn_des": 2014, "SOVEREIGNT": "China", "cntry": "China", "yr": 2014.0 }, "geometry": { "type": "Point", "coordinates": [ 100.268012622313805, 25.559900433134441 ] } },
{ "type": "Feature", "properties": { "fid": 148.0, "name": "Dunhuang UNESCO Global Geopark", "year": 2015.0, "map_id": 42.0, "unesco_des": 2015, "ggn_des": 2015, "SOVEREIGNT": "China", "cntry": "China", "yr": 2015.0 }, "geometry": { "type": "Point", "coordinates": [ 94.257462088890918, 40.182678952149772 ] } },
{ "type": "Feature", "properties": { "fid": 149.0, "name": "Zhijindong Cave UNESCO Global Geopark", "year": 2015.0, "map_id": 43.0, "unesco_des": 2015, "ggn_des": 2015, "SOVEREIGNT": "China", "cntry": "China", "yr": 2015.0 }, "geometry": { "type": "Point", "coordinates": [ 106.132529572194542, 26.546328859338239 ] } },
{ "type": "Feature", "properties": { "fid": 150.0, "name": "Arxan UNESCO Global Geopark", "year": 2017.0, "map_id": 44.0, "unesco_des": 2017, "ggn_des": 2017, "SOVEREIGNT": "China", "cntry": "China", "yr": 2017.0 }, "geometry": { "type": "Point", "coordinates": [ 120.203125564833584, 47.069029066292593 ] } },
{ "type": "Feature", "properties": { "fid": 151.0, "name": "Keketuohai UNESCO Global Geopark", "year": 2017.0, "map_id": 45.0, "unesco_des": 2017, "ggn_des": 2017, "SOVEREIGNT": "China", "cntry": "China", "yr": 2017.0 }, "geometry": { "type": "Point", "coordinates": [ 89.849627313454363, 47.03021985771408 ] } },
{ "type": "Feature", "properties": { "fid": 152.0, "name": "Guangwushan-Nuoshuihe UNESCO Global Geopark", "year": 2018.0, "map_id": 46.0, "unesco_des": 2018, "ggn_des": 2018, "SOVEREIGNT": "China", "cntry": "China", "yr": 2018.0 }, "geometry": { "type": "Point", "coordinates": [ 108.595210781857972, 29.694993130072124 ] } },
{ "type": "Feature", "properties": { "fid": 153.0, "name": "Huanggang Dabieshan UNESCO Global Geopark", "year": 2018.0, "map_id": 47.0, "unesco_des": 2018, "ggn_des": 2018, "SOVEREIGNT": "China", "cntry": "China", "yr": 2018.0 }, "geometry": { "type": "Point", "coordinates": [ 116.963505693478496, 29.846709257023299 ] } },
{ "type": "Feature", "properties": { "fid": 154.0, "name": "Yimengshan UNESCO Global Geopark", "year": 2019.0, "map_id": 48.0, "unesco_des": 2019, "ggn_des": 2019, "SOVEREIGNT": "China", "cntry": "China", "yr": 2019.0 }, "geometry": { "type": "Point", "coordinates": [ 117.503593107645898, 35.423723479863931 ] } },
{ "type": "Feature", "properties": { "fid": 155.0, "name": "Jiuhuashan UNESCO Global Geopark", "year": 2019.0, "map_id": 49.0, "unesco_des": 2019, "ggn_des": 2019, "SOVEREIGNT": "China", "cntry": "China", "yr": 2019.0 }, "geometry": { "type": "Point", "coordinates": [ 112.423206317223318, 35.879550623986894 ] } },
{ "type": "Feature", "properties": { "fid": 156.0, "name": "Xiangxi UNESCO Global Geopark", "year": 2020.0, "map_id": 50.0, "unesco_des": 2020, "ggn_des": 2020, "SOVEREIGNT": "China", "cntry": "China", "yr": 2020.0 }, "geometry": { "type": "Point", "coordinates": [ 108.676049613657895, 28.291476777756809 ] } },
{ "type": "Feature", "properties": { "fid": 157.0, "name": "Zhangye", "year": 2020.0, "map_id": 51.0, "unesco_des": 2020, "ggn_des": 2020, "SOVEREIGNT": "China", "cntry": "China", "yr": 2020.0 }, "geometry": { "type": "Point", "coordinates": [ 101.144840881912899, 39.419273235535556 ] } },
{ "type": "Feature", "properties": { "fid": 158.0, "name": "Kula-Salihli UNESCO Global Geopark", "year": 2015.0, "map_id": 146.0, "unesco_des": 2015, "ggn_des": 2014, "SOVEREIGNT": "Turkey", "cntry": "Turkey", "yr": 2014.0 }, "geometry": { "type": "Point", "coordinates": [ 28.691944386080056, 38.46623709563422 ] } },
{ "type": "Feature", "properties": { "fid": 159.0, "name": "De Hondsrug UNESCO Global Geopark", "year": 2015.0, "map_id": 110.0, "unesco_des": 2015, "ggn_des": 2013, "SOVEREIGNT": "Netherlands", "cntry": "Netherlands", "yr": 2013.0 }, "geometry": { "type": "Point", "coordinates": [ 7.037213117850055, 52.736368173034116 ] } },
{ "type": "Feature", "properties": { "fid": 160.0, "name": "Karawanken \/ Karavanke UNESCO Global Geopark", "year": 2015.0, "map_id": 158.0, "unesco_des": 2015, "ggn_des": 2013, "SOVEREIGNT": "Slovenia", "cntry": "Slovenia", "yr": 2013.0 }, "geometry": { "type": "Point", "coordinates": [ 14.941846244399574, 46.564871422090704 ] } },
{ "type": "Feature", "properties": { "fid": 161.0, "name": "GeoMon UNESCO Global Geopark", "year": 2015.0, "map_id": 151.0, "unesco_des": 2015, "ggn_des": 2009, "SOVEREIGNT": "United Kingdom", "cntry": "United Kingdom", "yr": 2009.0 }, "geometry": { "type": "Point", "coordinates": [ -4.212392450337416, 53.15361308826261 ] } }
]
}
